[
  {
    "Reporting Economy": "Australia",
    "Partner Economy": "Switzerland",
    "Longitude": 134.491000082,
    "Latitude": -25.7328870417,
    "Value": 19.9
  },
  {
    "Reporting Economy": "Austria",
    "Partner Economy": "Switzerland",
    "Longitude": 14.1264760996,
    "Latitude": 47.585494392,
    "Value": 118.842184
  },
  {
    "Reporting Economy": "Belgium",
    "Partner Economy": "Switzerland",
    "Longitude": 4.6406511392,
    "Latitude": 50.6398157556,
    "Value": 74.574861
  },
  {
    "Reporting Economy": "Bulgaria",
    "Partner Economy": "Switzerland",
    "Longitude": 25.2155290863,
    "Latitude": 42.7689031797,
    "Value": 2.62039
  },
  {
    "Reporting Economy": "Croatia",
    "Partner Economy": "Switzerland",
    "Longitude": 16.404128994,
    "Latitude": 45.0804763057,
    "Value": 0.789847
  },
  {
    "Reporting Economy": "Cyprus",
    "Partner Economy": "Switzerland",
    "Longitude": 33.0060021957,
    "Latitude": 34.916672112,
    "Value": 4.510892
  },
  {
    "Reporting Economy": "Czech Republic",
    "Partner Economy": "Switzerland",
    "Longitude": 15.3124016281,
    "Latitude": 49.7334123295,
    "Value": 4.368318
  },
  {
    "Reporting Economy": "Denmark",
    "Partner Economy": "Switzerland",
    "Longitude": 10.0280099191,
    "Latitude": 55.9812529593,
    "Value": 14.117417
  },
  {
    "Reporting Economy": "Estonia",
    "Partner Economy": "Switzerland",
    "Longitude": 25.5424853656,
    "Latitude": 58.6719297173,
    "Value": 7.886657
  },
  {
    "Reporting Economy": "Germany",
    "Partner Economy": "Switzerland",
    "Longitude": 10.385780508,
    "Latitude": 51.1069818075,
    "Value": 750.586807
  },
  {
    "Reporting Economy": "Greece",
    "Partner Economy": "Switzerland",
    "Longitude": 22.9555579369,
    "Latitude": 39.0746962307,
    "Value": 3.376612
  },
  {
    "Reporting Economy": "Hungary",
    "Partner Economy": "Switzerland",
    "Longitude": 19.3955911607,
    "Latitude": 47.1627750614,
    "Value": 9.257969
  },
  {
    "Reporting Economy": "Italy",
    "Partner Economy": "Switzerland",
    "Longitude": 12.0700133907,
    "Latitude": 42.796626414,
    "Value": 151.64168
  },
  {
    "Reporting Economy": "Latvia",
    "Partner Economy": "Switzerland",
    "Longitude": 24.9123598332,
    "Latitude": 56.8508516268,
    "Value": 3.385964
  },
  {
    "Reporting Economy": "Lithuania",
    "Partner Economy": "Switzerland",
    "Longitude": 23.8871935548,
    "Latitude": 55.3261098445,
    "Value": 0.925125
  },
  {
    "Reporting Economy": "Luxembourg",
    "Partner Economy": "Switzerland",
    "Longitude": 6.0718220107,
    "Latitude": 49.7672536068,
    "Value": 3325.427034
  },
  {
    "Reporting Economy": "Poland",
    "Partner Economy": "Switzerland",
    "Longitude": 19.3901283493,
    "Latitude": 52.1275956442,
    "Value": 17.378217
  },
  {
    "Reporting Economy": "Portugal",
    "Partner Economy": "Switzerland",
    "Longitude": -8.5010436127,
    "Latitude": 39.5955067145,
    "Value": 15.731438
  },
  {
    "Reporting Economy": "Romania",
    "Partner Economy": "Switzerland",
    "Longitude": 24.9729303933,
    "Latitude": 45.8524312742,
    "Value": 3.448306
  },
  {
    "Reporting Economy": "Slovak Republic",
    "Partner Economy": "Switzerland",
    "Longitude": 19.4790521811,
    "Latitude": 48.7054752813,
    "Value": 1.369953
  },
  {
    "Reporting Economy": "Slovenia",
    "Partner Economy": "Switzerland",
    "Longitude": 14.8044423776,
    "Latitude": 46.1155477207,
    "Value": 4.303179
  },
  {
    "Reporting Economy": "Sweden",
    "Partner Economy": "Switzerland",
    "Longitude": 16.7455804869,
    "Latitude": 62.7796651931,
    "Value": 40.750018
  },
  {
    "Reporting Economy": "Australia",
    "Partner Economy": "Switzerland",
    "Longitude": 134.491000082,
    "Latitude": -25.7328870417,
    "Value": 6.9
  },
  {
    "Reporting Economy": "Austria",
    "Partner Economy": "Switzerland",
    "Longitude": 14.1264760996,
    "Latitude": 47.585494392,
    "Value": 93.18479
  },
  {
    "Reporting Economy": "Belgium",
    "Partner Economy": "Switzerland",
    "Longitude": 4.6406511392,
    "Latitude": 50.6398157556,
    "Value": 284.667197
  },
  {
    "Reporting Economy": "Bulgaria",
    "Partner Economy": "Switzerland",
    "Longitude": 25.2155290863,
    "Latitude": 42.7689031797,
    "Value": 1.598058
  },
  {
    "Reporting Economy": "Croatia",
    "Partner Economy": "Switzerland",
    "Longitude": 16.404128994,
    "Latitude": 45.0804763057,
    "Value": 1.182355
  },
  {
    "Reporting Economy": "Cyprus",
    "Partner Economy": "Switzerland",
    "Longitude": 33.0060021957,
    "Latitude": 34.916672112,
    "Value": 5.579034
  },
  {
    "Reporting Economy": "Czech Republic",
    "Partner Economy": "Switzerland",
    "Longitude": 15.3124016281,
    "Latitude": 49.7334123295,
    "Value": 6.217709
  },
  {
    "Reporting Economy": "Denmark",
    "Partner Economy": "Switzerland",
    "Longitude": 10.0280099191,
    "Latitude": 55.9812529593,
    "Value": 19.06306
  },
  {
    "Reporting Economy": "Estonia",
    "Partner Economy": "Switzerland",
    "Longitude": 25.5424853656,
    "Latitude": 58.6719297173,
    "Value": 1.01101
  },
  {
    "Reporting Economy": "Germany",
    "Partner Economy": "Switzerland",
    "Longitude": 10.385780508,
    "Latitude": 51.1069818075,
    "Value": 908.156588
  },
  {
    "Reporting Economy": "Greece",
    "Partner Economy": "Switzerland",
    "Longitude": 22.9555579369,
    "Latitude": 39.0746962307,
    "Value": 4.564554
  },
  {
    "Reporting Economy": "Hungary",
    "Partner Economy": "Switzerland",
    "Longitude": 19.3955911607,
    "Latitude": 47.1627750614,
    "Value": 2.479258
  },
  {
    "Reporting Economy": "Ireland",
    "Partner Economy": "Switzerland",
    "Longitude": -8.1379356867,
    "Latitude": 53.175448704,
    "Value": 260.281018
  },
  {
    "Reporting Economy": "Italy",
    "Partner Economy": "Switzerland",
    "Longitude": 12.0700133907,
    "Latitude": 42.796626414,
    "Value": 70.038613
  },
  {
    "Reporting Economy": "Latvia",
    "Partner Economy": "Switzerland",
    "Longitude": 24.9123598332,
    "Latitude": 56.8508516268,
    "Value": 9.025082
  },
  {
    "Reporting Economy": "Luxembourg",
    "Partner Economy": "Switzerland",
    "Longitude": 6.0718220107,
    "Latitude": 49.7672536068,
    "Value": 6457.546573
  },
  {
    "Reporting Economy": "Poland",
    "Partner Economy": "Switzerland",
    "Longitude": 19.3901283493,
    "Latitude": 52.1275956442,
    "Value": 7.827296
  },
  {
    "Reporting Economy": "Portugal",
    "Partner Economy": "Switzerland",
    "Longitude": -8.5010436127,
    "Latitude": 39.5955067145,
    "Value": 21.662533
  },
  {
    "Reporting Economy": "Romania",
    "Partner Economy": "Switzerland",
    "Longitude": 24.9729303933,
    "Latitude": 45.8524312742,
    "Value": 15.331772
  },
  {
    "Reporting Economy": "Slovak Republic",
    "Partner Economy": "Switzerland",
    "Longitude": 19.4790521811,
    "Latitude": 48.7054752813,
    "Value": 0.342002
  },
  {
    "Reporting Economy": "Slovenia",
    "Partner Economy": "Switzerland",
    "Longitude": 14.8044423776,
    "Latitude": 46.1155477207,
    "Value": 2.136497
  },
  {
    "Reporting Economy": "Sweden",
    "Partner Economy": "Switzerland",
    "Longitude": 16.7455804869,
    "Latitude": 62.7796651931,
    "Value": 68.851727
  },
  {
    "Reporting Economy": "Switzerland",
    "Partner Economy": "Brazil",
    "Longitude": -53.0978311267,
    "Latitude": -10.7877770246,
    "Value": 26.7
  },
  {
    "Reporting Economy": "Switzerland",
    "Partner Economy": "Canada",
    "Longitude": -98.3077702819,
    "Latitude": 61.3620632437,
    "Value": 41.5
  },
  {
    "Reporting Economy": "Switzerland",
    "Partner Economy": "China",
    "Longitude": 103.81907349,
    "Latitude": 36.5617654559,
    "Value": 8.6
  },
  {
    "Reporting Economy": "Switzerland",
    "Partner Economy": "Hong Kong",
    "Longitude": 114.113804542,
    "Latitude": 22.3982773723,
    "Value": 87.3
  },
  {
    "Reporting Economy": "Switzerland",
    "Partner Economy": "India",
    "Longitude": 79.6119761026,
    "Latitude": 22.8857821183,
    "Value": 1.8
  },
  {
    "Reporting Economy": "Switzerland",
    "Partner Economy": "Japan",
    "Longitude": 138.030895577,
    "Latitude": 37.592301353,
    "Value": 22.4
  },
  {
    "Reporting Economy": "Switzerland",
    "Partner Economy": "Russia",
    "Longitude": 96.6865611231,
    "Latitude": 61.9805220919,
    "Value": 29.1
  },
  {
    "Reporting Economy": "Switzerland",
    "Partner Economy": "United States of America",
    "Longitude": -112.4616737,
    "Latitude": 45.6795472026,
    "Value": 450.7
  },
  {
    "Reporting Economy": "Switzerland",
    "Partner Economy": "Brazil",
    "Longitude": -53.0978311267,
    "Latitude": -10.7877770246,
    "Value": 167.2
  },
  {
    "Reporting Economy": "Switzerland",
    "Partner Economy": "Canada",
    "Longitude": -98.3077702819,
    "Latitude": 61.3620632437,
    "Value": 91.3
  },
  {
    "Reporting Economy": "Switzerland",
    "Partner Economy": "China",
    "Longitude": 103.81907349,
    "Latitude": 36.5617654559,
    "Value": 51.3
  },
  {
    "Reporting Economy": "Switzerland",
    "Partner Economy": "Hong Kong",
    "Longitude": 114.113804542,
    "Latitude": 22.3982773723,
    "Value": 133.7
  },
  {
    "Reporting Economy": "Switzerland",
    "Partner Economy": "India",
    "Longitude": 79.6119761026,
    "Latitude": 22.8857821183,
    "Value": 16.5
  },
  {
    "Reporting Economy": "Switzerland",
    "Partner Economy": "Japan",
    "Longitude": 138.030895577,
    "Latitude": 37.592301353,
    "Value": 54.3
  },
  {
    "Reporting Economy": "Switzerland",
    "Partner Economy": "Russia",
    "Longitude": 96.6865611231,
    "Latitude": 61.9805220919,
    "Value": 388.2
  },
  {
    "Reporting Economy": "Switzerland",
    "Partner Economy": "United States of America",
    "Longitude": -112.4616737,
    "Latitude": 45.6795472026,
    "Value": 670.3
  }
]